{"type":"FeatureCollection","features":[{"type":"Feature","id":0,"geometry":{"type":"Point","coordinates":[-8.481572,38.363564]},"properties":{"FID":0,"Nome":"Alcácer do Sal, Barrosinha","Lat":38.363564,"Long":-8.481572,"Tx_ND30":60.1,"Tn_ND20":2.5}},{"type":"Feature","id":1,"geometry":{"type":"Point","coordinates":[-8.969317,39.548011]},"properties":{"FID":1,"Nome":"Alcobaça, Estação Fruticultura Vieira Natividade","Lat":39.548011,"Long":-8.969317,"Tx_ND30":19.3,"Tn_ND20":0.9}},{"type":"Feature","id":2,"geometry":{"type":"Point","coordinates":[-8.394386,37.946806]},"properties":{"FID":2,"Nome":"Alvalade","Lat":37.946806,"Long":-8.394386,"Tx_ND30":68.3,"Tn_ND20":1}},{"type":"Feature","id":3,"geometry":{"type":"Point","coordinates":[-8.026972,39.461103]},"properties":{"FID":3,"Nome":"Alvega","Lat":39.461103,"Long":-8.026972,"Tx_ND30":75.1,"Tn_ND20":1.2}},{"type":"Feature","id":4,"geometry":{"type":"Point","coordinates":[-7.226097,38.2007]},"properties":{"FID":4,"Nome":"Amareleja","Lat":38.2007,"Long":-7.226097,"Tx_ND30":94.2,"Tn_ND20":6.7}},{"type":"Feature","id":5,"geometry":{"type":"Point","coordinates":[-8.439942,40.438858]},"properties":{"FID":5,"Nome":"Anadia,  Estação Vitivinícola da Bairrada","Lat":40.438858,"Long":-8.439942,"Tx_ND30":29,"Tn_ND20":1.3}},{"type":"Feature","id":7,"geometry":{"type":"Point","coordinates":[-8.659583329999975,40.63529722000004]},"properties":{"FID":7,"Nome":"Aveiro, Universidade","Lat":40.635297,"Long":-8.659583,"Tx_ND30":9.8,"Tn_ND20":1.7}},{"type":"Feature","id":8,"geometry":{"type":"Point","coordinates":[-7.877661,39.1069]},"properties":{"FID":8,"Nome":"Benavila, Avis","Lat":39.1069,"Long":-7.877661,"Tx_ND30":72.1,"Tn_ND20":5}},{"type":"Feature","id":9,"geometry":{"type":"Point","coordinates":[-7.867319,38.025728]},"properties":{"FID":9,"Nome":"Beja","Lat":38.025728,"Long":-7.867319,"Tx_ND30":77.1,"Tn_ND20":8.9}},{"type":"Feature","id":10,"geometry":{"type":"Point","coordinates":[-8.4,41.55]},"properties":{"FID":10,"Nome":"Braga, Posto Agrário","Lat":41.55,"Long":-8.4,"Tx_ND30":29.3,"Tn_ND20":1.6}},{"type":"Feature","id":11,"geometry":{"type":"Point","coordinates":[-6.742831,41.803883]},"properties":{"FID":11,"Nome":"Bragança","Lat":41.803883,"Long":-6.742831,"Tx_ND30":33.9,"Tn_ND20":1.5}},{"type":"Feature","id":12,"geometry":{"type":"Point","coordinates":[-9.406981,39.361408]},"properties":{"FID":12,"Nome":"Cabo Carvoeiro","Lat":39.361408,"Long":-9.406981,"Tx_ND30":0.3,"Tn_ND20":0.2}},{"type":"Feature","id":13,"geometry":{"type":"Point","coordinates":[-8.026986,41.709717]},"properties":{"FID":13,"Nome":"Cabril, S. Lourenço","Lat":41.709717,"Long":-8.026986,"Tx_ND30":29.5,"Tn_ND20":9.5}},{"type":"Feature","id":14,"geometry":{"type":"Point","coordinates":[-7.299333,41.24295]},"properties":{"FID":14,"Nome":"Carrazêda de Ansiães","Lat":41.24295,"Long":-7.299333,"Tx_ND30":26.4,"Tn_ND20":0.3}},{"type":"Feature","id":15,"geometry":{"type":"Point","coordinates":[-7.478694,39.839444]},"properties":{"FID":15,"Nome":"Castelo Branco","Lat":39.839444,"Long":-7.478694,"Tx_ND30":65.5,"Tn_ND20":20.6}},{"type":"Feature","id":16,"geometry":{"type":"Point","coordinates":[-7.465411,41.7252]},"properties":{"FID":16,"Nome":"Chaves, Aeródromo","Lat":41.7252,"Long":-7.465411,"Tx_ND30":57.9,"Tn_ND20":0.3}},{"type":"Feature","id":17,"geometry":{"type":"Point","coordinates":[-8.455153,40.213469]},"properties":{"FID":17,"Nome":"Coimbra, Bencanta","Lat":40.213469,"Long":-8.455153,"Tx_ND30":32.2,"Tn_ND20":0.8}},{"type":"Feature","id":18,"geometry":{"type":"Point","coordinates":[-7.066666666666666,38.05]},"properties":{"FID":18,"Nome":"Contenda","Lat":38.05,"Long":-7.066667,"Tx_ND30":74.1,"Tn_ND20":25.4}},{"type":"Feature","id":19,"geometry":{"type":"Point","coordinates":[-8.761597,40.445956]},"properties":{"FID":19,"Nome":"Dunas de Mira","Lat":40.445956,"Long":-8.761597,"Tx_ND30":9.4,"Tn_ND20":0}},{"type":"Feature","id":20,"geometry":{"type":"Point","coordinates":[-7.140833,38.8896]},"properties":{"FID":20,"Nome":"Elvas, Est. Melhoramento Plantas","Lat":38.8896,"Long":-7.140833,"Tx_ND30":87.1,"Tn_ND20":12.4}},{"type":"Feature","id":21,"geometry":{"type":"Point","coordinates":[-7.887958,38.536542]},"properties":{"FID":21,"Nome":"Évora, Aeródromo","Lat":38.536542,"Long":-7.887958,"Tx_ND30":50.8,"Tn_ND20":12.1}},{"type":"Feature","id":22,"geometry":{"type":"Point","coordinates":[-7.971953,37.016578]},"properties":{"FID":22,"Nome":"Faro, Aeroporto","Lat":37.016578,"Long":-7.971953,"Tx_ND30":29.1,"Tn_ND20":24.8}},{"type":"Feature","id":25,"geometry":{"type":"Point","coordinates":[-7.503628,40.140636]},"properties":{"FID":25,"Nome":"Fundão","Lat":40.140636,"Long":-7.503628,"Tx_ND30":55.8,"Tn_ND20":5.6}},{"type":"Feature","id":26,"geometry":{"type":"Point","coordinates":[-7.278675,40.528558]},"properties":{"FID":26,"Nome":"Guarda","Lat":40.528558,"Long":-7.278675,"Tx_ND30":7.4,"Tn_ND20":5.3}},{"type":"Feature","id":27,"geometry":{"type":"Point","coordinates":[-7.25,39.86666666666667]},"properties":{"FID":27,"Nome":"Ladoeiro, Ribª.Freixo","Lat":39.866667,"Long":-7.25,"Tx_ND30":88.9,"Tn_ND20":3.1}},{"type":"Feature","id":28,"geometry":{"type":"Point","coordinates":[-9.127494,38.766203]},"properties":{"FID":28,"Nome":"Lisboa, Gago Coutinho","Lat":38.766203,"Long":-9.127494,"Tx_ND30":30.3,"Tn_ND20":13.4}},{"type":"Feature","id":29,"geometry":{"type":"Point","coordinates":[-9.182825,38.709561]},"properties":{"FID":29,"Nome":"Lisboa, Tapada da Ajuda","Lat":38.709561,"Long":-9.182825,"Tx_ND30":26.7,"Tn_ND20":6.2}},{"type":"Feature","id":30,"geometry":{"type":"Point","coordinates":[-9.149722,38.719078]},"properties":{"FID":30,"Nome":"Lisboa, Geofísico","Lat":38.719078,"Long":-9.149722,"Tx_ND30":24.8,"Tn_ND20":14.1}},{"type":"Feature","id":31,"geometry":{"type":"Point","coordinates":[-8.248958,41.145886]},"properties":{"FID":31,"Nome":"Luzim","Lat":41.145886,"Long":-8.248958,"Tx_ND30":35.1,"Tn_ND20":3}},{"type":"Feature","id":32,"geometry":{"type":"Point","coordinates":[-6.271525,41.498822]},"properties":{"FID":32,"Nome":"Miranda do Douro","Lat":41.498822,"Long":-6.271525,"Tx_ND30":34.5,"Tn_ND20":0.6}},{"type":"Feature","id":33,"geometry":{"type":"Point","coordinates":[-7.190839,41.514786]},"properties":{"FID":33,"Nome":"Mirandela","Lat":41.514786,"Long":-7.190839,"Tx_ND30":68,"Tn_ND20":3.5}},{"type":"Feature","id":34,"geometry":{"type":"Point","coordinates":[-8.380969,42.073361]},"properties":{"FID":34,"Nome":"Monção, Valinha","Lat":42.073361,"Long":-8.380969,"Tx_ND30":39.4,"Tn_ND20":2.9}},{"type":"Feature","id":35,"geometry":{"type":"Point","coordinates":[-7.787892,41.822783]},"properties":{"FID":35,"Nome":"Montalegre","Lat":41.822783,"Long":-7.787892,"Tx_ND30":5.9,"Tn_ND20":0.4}},{"type":"Feature","id":36,"geometry":{"type":"Point","coordinates":[-8.883333333333333,39.083333333333336]},"properties":{"FID":36,"Nome":"Monte Real, Base Aérea","Lat":39.083333,"Long":-8.883333,"Tx_ND30":13.5,"Tn_ND20":0.6}},{"type":"Feature","id":37,"geometry":{"type":"Point","coordinates":[-8.716666666666667,40.18333333333333]},"properties":{"FID":37,"Nome":"Montemor o Velho","Lat":40.183333,"Long":-8.716667,"Tx_ND30":17.3,"Tn_ND20":0.6}},{"type":"Feature","id":38,"geometry":{"type":"Point","coordinates":[-9.05,38.7]},"properties":{"FID":38,"Nome":"Montijo, Base Aérea","Lat":38.7,"Long":-9.05,"Tx_ND30":31.7,"Tn_ND20":2.4}},{"type":"Feature","id":39,"geometry":{"type":"Point","coordinates":[-8.164058,38.940683]},"properties":{"FID":39,"Nome":"Mora","Lat":38.940683,"Long":-8.164058,"Tx_ND30":66.2,"Tn_ND20":4.3}},{"type":"Feature","id":40,"geometry":{"type":"Point","coordinates":[-7.855472,40.523497]},"properties":{"FID":40,"Nome":"Nelas","Lat":40.523497,"Long":-7.855472,"Tx_ND30":38.7,"Tn_ND20":3.3}},{"type":"Feature","id":41,"geometry":{"type":"Point","coordinates":[-7.421317,39.294183]},"properties":{"FID":41,"Nome":"Portalegre","Lat":39.294183,"Long":-7.421317,"Tx_ND30":45,"Tn_ND20":29.5}},{"type":"Feature","id":42,"geometry":{"type":"Point","coordinates":[-8.635025,38.650794]},"properties":{"FID":42,"Nome":"Pegões","Lat":38.650794,"Long":-8.635025,"Tx_ND30":53.6,"Tn_ND20":1.6}},{"type":"Feature","id":43,"geometry":{"type":"Point","coordinates":[-7.558653,40.411367]},"properties":{"FID":43,"Nome":"Penhas Douradas, Observatório","Lat":40.411367,"Long":-7.558653,"Tx_ND30":1.5,"Tn_ND20":2.4}},{"type":"Feature","id":44,"geometry":{"type":"Point","coordinates":[-7.548972,41.172775]},"properties":{"FID":44,"Nome":"Pinhão, S. Bárbara","Lat":41.172775,"Long":-7.548972,"Tx_ND30":81.3,"Tn_ND20":6.5}},{"type":"Feature","id":46,"geometry":{"type":"Point","coordinates":[-8.679108,41.232275]},"properties":{"FID":46,"Nome":"Porto, Pedras Rubras","Lat":41.232275,"Long":-8.679108,"Tx_ND30":10.1,"Tn_ND20":2.1}},{"type":"Feature","id":47,"geometry":{"type":"Point","coordinates":[-8.64445,41.184453]},"properties":{"FID":47,"Nome":"Porto, S.Gens","Lat":41.184453,"Long":-8.64445,"Tx_ND30":12,"Tn_ND20":3.4}},{"type":"Feature","id":48,"geometry":{"type":"Point","coordinates":[-8.6025,41.138519]},"properties":{"FID":48,"Nome":"Porto, Serra do Pilar","Lat":41.138519,"Long":-8.6025,"Tx_ND30":13.9,"Tn_ND20":2.2}},{"type":"Feature","id":50,"geometry":{"type":"Point","coordinates":[-8.529463,37.116705]},"properties":{"FID":50,"Nome":"Praia da Rocha","Lat":37.116705,"Long":-8.529463,"Tx_ND30":21.4,"Tn_ND20":18.1}},{"type":"Feature","id":51,"geometry":{"type":"Point","coordinates":[-7.8,41.15]},"properties":{"FID":51,"Nome":"Régua","Lat":41.15,"Long":-7.8,"Tx_ND30":12,"Tn_ND20":3.4}},{"type":"Feature","id":52,"geometry":{"type":"Point","coordinates":[-8.7,39.25]},"properties":{"FID":52,"Nome":"Santarém, Escola Agrícola","Lat":39.25,"Long":-8.7,"Tx_ND30":51,"Tn_ND20":1.7}},{"type":"Feature","id":53,"geometry":{"type":"Point","coordinates":[-8.736661,39.201261]},"properties":{"FID":53,"Nome":"Santarém, Fonte Boa, Est. Zootécnica","Lat":39.201261,"Long":-8.736661,"Tx_ND30":52.9,"Tn_ND20":2.6}},{"type":"Feature","id":54,"geometry":{"type":"Point","coordinates":[-9.030589,39.763619]},"properties":{"FID":54,"Nome":"São Pedro de Moel","Lat":39.763619,"Long":-9.030589,"Tx_ND30":2.2,"Tn_ND20":0.5}},{"type":"Feature","id":55,"geometry":{"type":"Point","coordinates":[-8.890783,38.548497]},"properties":{"FID":55,"Nome":"Setúbal, Estação de Fruticultura","Lat":38.548497,"Long":-8.890783,"Tx_ND30":42.4,"Tn_ND20":3}},{"type":"Feature","id":56,"geometry":{"type":"Point","coordinates":[-8.816666666666666,38.483333333333334]},"properties":{"FID":56,"Nome":"Setubal, Setenave","Lat":38.483333,"Long":-8.816667,"Tx_ND30":38.2,"Tn_ND20":4.6}},{"type":"Feature","id":57,"geometry":{"type":"Point","coordinates":[-8.838272,37.954503]},"properties":{"FID":57,"Nome":"Sines, Monte Chãos","Lat":37.954503,"Long":-8.838272,"Tx_ND30":1.7,"Tn_ND20":1.6}},{"type":"Feature","id":58,"geometry":{"type":"Point","coordinates":[-9.333333333333334,38.833333333333336]},"properties":{"FID":58,"Nome":"Sinta, Granja","Lat":38.833333,"Long":-9.333333,"Tx_ND30":13.3,"Tn_ND20":0.6}},{"type":"Feature","id":59,"geometry":{"type":"Point","coordinates":[-8.25,37.166666666666664]},"properties":{"FID":59,"Nome":"Tunes","Lat":37.166667,"Long":-8.25,"Tx_ND30":62.7,"Tn_ND20":8.8}},{"type":"Feature","id":60,"geometry":{"type":"Point","coordinates":[-8.045539,38.331919]},"properties":{"FID":60,"Nome":"Viana do Alentejo","Lat":38.331919,"Long":-8.045539,"Tx_ND30":81.6,"Tn_ND20":4.5}},{"type":"Feature","id":61,"geometry":{"type":"Point","coordinates":[-8.8,41.7]},"properties":{"FID":61,"Nome":"Viana do Castelo, Meadela","Lat":41.7,"Long":-8.8,"Tx_ND30":20.3,"Tn_ND20":1.5}},{"type":"Feature","id":62,"geometry":{"type":"Point","coordinates":[-8.883333333333333,37.083333333333336]},"properties":{"FID":62,"Nome":"Vila do Bispo","Lat":37.083333,"Long":-8.883333,"Tx_ND30":6.4,"Tn_ND20":4.9}},{"type":"Feature","id":63,"geometry":{"type":"Point","coordinates":[-7.316666666666666,38.916666666666664]},"properties":{"FID":63,"Nome":"Vila Fernando","Lat":38.916667,"Long":-7.316667,"Tx_ND30":69.3,"Tn_ND20":9.2}},{"type":"Feature","id":64,"geometry":{"type":"Point","coordinates":[-7.717114,41.274208]},"properties":{"FID":64,"Nome":"Vila Real, Aeródromo","Lat":41.274208,"Long":-7.717114,"Tx_ND30":38.5,"Tn_ND20":2.8}},{"type":"Feature","id":65,"geometry":{"type":"Point","coordinates":[-7.416325,37.187106]},"properties":{"FID":65,"Nome":"Vila Real de S.António","Lat":37.187106,"Long":-7.416325,"Tx_ND30":47.9,"Tn_ND20":23.6}},{"type":"Feature","id":66,"geometry":{"type":"Point","coordinates":[-7.895917,40.714928]},"properties":{"FID":66,"Nome":"Viseu, Aeródromo","Lat":40.714928,"Long":-7.895917,"Tx_ND30":44.6,"Tn_ND20":1}},{"type":"Feature","id":67,"geometry":{"type":"Point","coordinates":[-8.742869,37.581958]},"properties":{"FID":67,"Nome":"Zambujeira","Lat":37.581958,"Long":-8.742869,"Tx_ND30":13,"Tn_ND20":0.8}}]}